ATTITUDE {time_boot_ms : 5708541, roll : -0.5747829079627991, pitch : 0.2608281373977661, yaw : -2.4001004695892334, rollspeed : -0.3198579251766205, pitchspeed : -1.1795724630355835, yawspeed : 0.698585569858551}
VFR_HUD {airspeed : 0.44700002670288086, groundspeed : 0.5522386431694031, heading : 222, throttle : 0, alt : 74.29000091552734, climb : -0.6769424676895142}
AHRS2 {roll : -0.5887742638587952, pitch : 0.2516964077949524, yaw : -2.430009365081787, altitude : 77.65999603271484, lat : 583103816, lng : 266901512}
STATUSTEXT {severity : 6, text : ArduCopter V4.4.4 (db53a28f), id : 0, chunk_seq : 0}
STATUSTEXT {severity : 6, text : ChibiOS: 17a50e3a, id : 0, chunk_seq : 0}
STATUSTEXT {severity : 6, text : Pixhawk6C 002C0048 3430510B 38303334, id : 0, chunk_seq : 0}
STATUSTEXT {severity : 6, text : RCOut: PWM:1-16, id : 0, chunk_seq : 0}
STATUSTEXT {severity : 6, text : IMU0: fast sampling enabled 2.0kHz, id : 0, chunk_seq : 0}
STATUSTEXT {severity : 6, text : Frame: QUAD/X, id : 0, chunk_seq : 0}
PARAM_VALUE {param_id : FORMAT_VERSION, param_value : 120.0, param_type : 4, param_count : 975, param_index : 0}
PARAM_VALUE {param_id : SYSID_THISMAV, param_value : 1.0, param_type : 4, param_count : 975, param_index : 1}
PARAM_VALUE {param_id : SYSID_MYGCS, param_value : 255.0, param_type : 4, param_count : 975, param_index : 2}
PARAM_VALUE {param_id : PILOT_THR_FILT, param_value : 0.0, param_type : 9, param_count : 975, param_index : 3}
PARAM_VALUE {param_id : PILOT_TKOFF_ALT, param_value : 0.0, param_type : 9, param_count : 975, param_index : 4}
PARAM_VALUE {param_id : PILOT_THR_BHV, param_value : 0.0, param_type : 4, param_count : 975, param_index : 5}
PARAM_VALUE {param_id : SERIAL0_BAUD, param_value : 115.0, param_type : 6, param_count : 975, param_index : 6}
PARAM_VALUE {param_id : SERIAL0_PROTOCOL, param_value : 2.0, param_type : 2, param_count : 975, param_index : 7}
PARAM_VALUE {param_id : SERIAL1_PROTOCOL, param_value : 2.0, param_type : 2, param_count : 975, param_index : 8}
PARAM_VALUE {param_id : SERIAL1_BAUD, param_value : 57.0, param_type : 6, param_count : 975, param_index : 9}
PARAM_VALUE {param_id : SERIAL2_PROTOCOL, param_value : 2.0, param_type : 2, param_count : 975, param_index : 10}
PARAM_VALUE {param_id : SERIAL2_BAUD, param_value : 57.0, param_type : 6, param_count : 975, param_index : 11}
PARAM_VALUE {param_id : SERIAL3_PROTOCOL, param_value : 5.0, param_type : 2, param_count : 975, param_index : 12}
PARAM_VALUE {param_id : SERIAL3_BAUD, param_value : 38.0, param_type : 6, param_count : 975, param_index : 13}
PARAM_VALUE {param_id : SERIAL4_PROTOCOL, param_value : 5.0, param_type : 2, param_count : 975, param_index : 14}
PARAM_VALUE {param_id : SERIAL4_BAUD, param_value : 38.0, param_type : 6, param_count : 975, param_index : 15}
PARAM_VALUE {param_id : SERIAL5_PROTOCOL, param_value : -1.0, param_type : 2, param_count : 975, param_index : 16}
PARAM_VALUE {param_id : SERIAL5_BAUD, param_value : 57.0, param_type : 6, param_count : 975, param_index : 17}
PARAM_VALUE {param_id : SERIAL6_PROTOCOL, param_value : -1.0, param_type : 2, param_count : 975, param_index : 18}
PARAM_VALUE {param_id : SERIAL6_BAUD, param_value : 57.0, param_type : 6, param_count : 975, param_index : 19}
PARAM_VALUE {param_id : SERIAL1_OPTIONS, param_value : 0.0, param_type : 4, param_count : 975, param_index : 20}
PARAM_VALUE {param_id : SERIAL2_OPTIONS, param_value : 0.0, param_type : 4, param_count : 975, param_index : 21}
PARAM_VALUE {param_id : SERIAL3_OPTIONS, param_value : 0.0, param_type : 4, param_count : 975, param_index : 22}
PARAM_VALUE {param_id : SERIAL4_OPTIONS, param_value : 0.0, param_type : 4, param_count : 975, param_index : 23}
PARAM_VALUE {param_id : SERIAL5_OPTIONS, param_value : 0.0, param_type : 4, param_count : 975, param_index : 24}
PARAM_VALUE {param_id : SERIAL6_OPTIONS, param_value : 0.0, param_type : 4, param_count : 975, param_index : 25}
PARAM_VALUE {param_id : SERIAL_PASS1, param_value : 0.0, param_type : 2, param_count : 975, param_index : 26}
PARAM_VALUE {param_id : SERIAL_PASS2, param_value : -1.0, param_type : 2, param_count : 975, param_index : 27}
PARAM_VALUE {param_id : SERIAL_PASSTIMO, param_value : 15.0, param_type : 2, param_count : 975, param_index : 28}
PARAM_VALUE {param_id : SERIAL7_PROTOCOL, param_value : 2.0, param_type : 2, param_count : 975, param_index : 29}
HEARTBEAT {type : 2, autopilot : 3, base_mode : 81, custom_mode : 0, system_status : 5, mavlink_version : 3}
PARAM_VALUE {param_id : SERIAL7_BAUD, param_value : 115200.0, param_type : 6, param_count : 975, param_index : 30}
PARAM_VALUE {param_id : SERIAL7_OPTIONS, param_value : 0.0, param_type : 4, param_count : 975, param_index : 31}
PARAM_VALUE {param_id : TELEM_DELAY, param_value : 0.0, param_type : 2, param_count : 975, param_index : 32}
PARAM_VALUE {param_id : GCS_PID_MASK, param_value : 0.0, param_type : 4, param_count : 975, param_index : 33}
PARAM_VALUE {param_id : RTL_ALT, param_value : 1500.0, param_type : 6, param_count : 975, param_index : 34}
PARAM_VALUE {param_id : RTL_CONE_SLOPE, param_value : 3.0, param_type : 9, param_count : 975, param_index : 35}
PARAM_VALUE {param_id : RTL_SPEED, param_value : 0.0, param_type : 4, param_count : 975, param_index : 36}
PARAM_VALUE {param_id : RTL_ALT_FINAL, param_value : 0.0, param_type : 4, param_count : 975, param_index : 37}
PARAM_VALUE {param_id : RTL_CLIMB_MIN, param_value : 0.0, param_type : 4, param_count : 975, param_index : 38}
PARAM_VALUE {param_id : RTL_LOIT_TIME, param_value : 5000.0, param_type : 6, param_count : 975, param_index : 39}
PARAM_VALUE {param_id : RTL_ALT_TYPE, param_value : 0.0, param_type : 2, param_count : 975, param_index : 40}
PARAM_VALUE {param_id : FS_GCS_ENABLE, param_value : 0.0, param_type : 2, param_count : 975, param_index : 41}
PARAM_VALUE {param_id : GPS_HDOP_GOOD, param_value : 140.0, param_type : 4, param_count : 975, param_index : 42}
PARAM_VALUE {param_id : SUPER_SIMPLE, param_value : 0.0, param_type : 2, param_count : 975, param_index : 43}
PARAM_VALUE {param_id : WP_YAW_BEHAVIOR, param_value : 2.0, param_type : 2, param_count : 975, param_index : 44}
PARAM_VALUE {param_id : LAND_SPEED, param_value : 50.0, param_type : 4, param_count : 975, param_index : 45}
PARAM_VALUE {param_id : LAND_SPEED_HIGH, param_value : 0.0, param_type : 4, param_count : 975, param_index : 46}
PARAM_VALUE {param_id : PILOT_SPEED_UP, param_value : 250.0, param_type : 4, param_count : 975, param_index : 47}
PARAM_VALUE {param_id : PILOT_ACCEL_Z, param_value : 250.0, param_type : 4, param_count : 975, param_index : 48}
PARAM_VALUE {param_id : FS_THR_ENABLE, param_value : 1.0, param_type : 2, param_count : 975, param_index : 49}
PARAM_VALUE {param_id : FS_THR_VALUE, param_value : 970.0, param_type : 4, param_count : 975, param_index : 50}
PARAM_VALUE {param_id : THR_DZ, param_value : 100.0, param_type : 4, param_count : 975, param_index : 51}
PARAM_VALUE {param_id : FLTMODE1, param_value : 2.0, param_type : 2, param_count : 975, param_index : 52}
PARAM_VALUE {param_id : FLTMODE2, param_value : 0.0, param_type : 2, param_count : 975, param_index : 53}
PARAM_VALUE {param_id : FLTMODE3, param_value : 0.0, param_type : 2, param_count : 975, param_index : 54}
PARAM_VALUE {param_id : FLTMODE4, param_value : 5.0, param_type : 2, param_count : 975, param_index : 55}
PARAM_VALUE {param_id : FLTMODE5, param_value : 0.0, param_type : 2, param_count : 975, param_index : 56}
PARAM_VALUE {param_id : FLTMODE6, param_value : 3.0, param_type : 2, param_count : 975, param_index : 57}
PARAM_VALUE {param_id : FLTMODE_CH, param_value : 5.0, param_type : 2, param_count : 975, param_index : 58}
PARAM_VALUE {param_id : INITIAL_MODE, param_value : 0.0, param_type : 2, param_count : 975, param_index : 59}
PARAM_VALUE {param_id : SIMPLE, param_value : 0.0, param_type : 2, param_count : 975, param_index : 60}
PARAM_VALUE {param_id : LOG_BITMASK, param_value : 176126.0, param_type : 6, param_count : 975, param_index : 61}
GLOBAL_POSITION_INT {time_boot_ms : 5710146, lat : 583103806, lon : 266901450, alt : 74880, relative_alt : -8931, vx : 33, vy : -15, vz : 62, hdg : 26863}
SYS_STATUS {onboard_control_sensors_present : 1467022383, onboard_control_sensors_enabled : 1382030383, onboard_control_sensors_health : 1198562351, load : 189, voltage_battery : 1, current_battery : 54, battery_remaining : 73, drop_rate_comm : 0, errors_comm : 0, errors_count1 : 0, errors_count2 : 0, errors_count3 : 0, errors_count4 : 0}
POWER_STATUS {Vcc : 4756, Vservo : 0, flags : 20}
MEMINFO {brkval : 0, freemem : 65535, freemem32 : 552848}
NAV_CONTROLLER_OUTPUT {nav_roll : 0.00021039973944425583, nav_pitch : -0.00033651001285761595, nav_bearing : -91, target_bearing : 0, wp_dist : 0, alt_error : 8.931193351745605, aspd_error : 0.0, xtrack_error : 0.0}
MISSION_CURRENT {seq : 0, total : 0, mission_state : 0, mission_mode : 0}
SERVO_OUTPUT_RAW {time_usec : 1415179258, port : 0, servo1_raw : 1000, servo2_raw : 1000, servo3_raw : 1000, servo4_raw : 1000, servo5_raw : 0, servo6_raw : 0, servo7_raw : 0, servo8_raw : 0, servo9_raw : 0, servo10_raw : 0, servo11_raw : 0, servo12_raw : 0, servo13_raw : 0, servo14_raw : 0, servo15_raw : 0, servo16_raw : 0}
RC_CHANNELS {time_boot_ms : 5710146, chancount : 0, chan1_raw : 0, chan2_raw : 0, chan3_raw : 0, chan4_raw : 0, chan5_raw : 0, chan6_raw : 0, chan7_raw : 0, chan8_raw : 0, chan9_raw : 0, chan10_raw : 0, chan11_raw : 0, chan12_raw : 0, chan13_raw : 0, chan14_raw : 0, chan15_raw : 0, chan16_raw : 0, chan17_raw : 0, chan18_raw : 0, rssi : 255}
RAW_IMU {time_usec : 5710146587, xacc : -61, yacc : -165, zacc : -1044, xgyro : -359, ygyro : 72, zgyro : 453, xmag : -12, ymag : 97, zmag : 491, id : 0, temperature : 4528}
SCALED_IMU2 {time_boot_ms : 5710146, xacc : -62, yacc : -173, zacc : -1040, xgyro : -350, ygyro : 65, zgyro : 458, xmag : 26, ymag : 175, zmag : 415, temperature : 4600}
SCALED_PRESSURE {time_boot_ms : 5710146, press_abs : 996.6004638671875, press_diff : 0.0, temperature : 2409, temperature_press_diff : 0}
GPS_RAW_INT {time_usec : 5709964000, fix_type : 3, lat : 583103806, lon : 266901450, alt : 74880, eph : 81, epv : 111, vel : 26, cog : 1388, satellites_visible : 15, alt_ellipsoid : 94291, h_acc : 1726, v_acc : 2164, vel_acc : 765, hdg_acc : 0, yaw : 0}
SYSTEM_TIME {time_unix_usec : 1711368312079979, time_boot_ms : 5710146}
AHRS {omegaIx : 0.002731864806264639, omegaIy : -0.006283600814640522, omegaIz : -0.0025843868497759104, accel_weight : 0.0, renorm_val : 0.0, error_rp : 0.11575895547866821, error_yaw : 0.20104753971099854}
TERRAIN_REPORT {lat : 583103806, lon : 266901450, spacing : 100, terrain_height : 65.31694030761719, current_height : -5.72998046875, pending : 56, loaded : 616}
TERRAIN_REQUEST {lat : 582587162, lon : 266192928, grid_spacing : 100, mask : 72057594037927935}
EKF_STATUS_REPORT {flags : 167, velocity_variance : 0.0, pos_horiz_variance : 0.16305959224700928, pos_vert_variance : 0.09303807467222214, compass_variance : 0.15296664834022522, terrain_alt_variance : 0.0, airspeed_variance : 0.0}
VIBRATION {time_usec : 5710148815, vibration_x : 0.23722578585147858, vibration_y : 0.22624367475509644, vibration_z : 0.3046207129955292, clipping_0 : 0, clipping_1 : 0, clipping_2 : 0}
BATTERY_STATUS {id : 0, battery_function : 0, type : 0, temperature : 32767, voltages : [1, 65535, 65535, 65535, 65535, 65535, 65535, 65535, 65535, 65535], current_battery : 54, current_consumed : 864, energy_consumed : 0, battery_remaining : 73, time_remaining : 0, charge_state : 1, voltages_ext : [0, 0, 0, 0], mode : 0, fault_bitmask : 0}
MCU_STATUS {id : 0, MCU_temperature : 2709, MCU_voltage : 3329, MCU_voltage_min : 3322, MCU_voltage_max : 3335}
ATTITUDE {time_boot_ms : 5710148, roll : 0.05959862843155861, pitch : -0.0354190357029438, yaw : -1.5938336849212646, rollspeed : -0.36512646079063416, pitchspeed : 0.05708162114024162, yawspeed : 0.4567854702472687}
VFR_HUD {airspeed : 0.26500001549720764, groundspeed : 0.3643271327018738, heading : 268, throttle : 0, alt : 74.87999725341797, climb : -0.6189485788345337}
AHRS2 {roll : 0.04403337836265564, pitch : -0.03495931252837181, yaw : -1.6407639980316162, altitude : 77.79999542236328, lat : 583103806, lng : 266901438}
PARAM_VALUE {param_id : ESC_CALIBRATION, param_value : 0.0, param_type : 2, param_count : 975, param_index : 62}
PARAM_VALUE {param_id : TUNE, param_value : 0.0, param_type : 2, param_count : 975, param_index : 63}
PARAM_VALUE {param_id : FRAME_TYPE, param_value : 1.0, param_type : 2, param_count : 975, param_index : 64}
PARAM_VALUE {param_id : ARMING_ACCTHRESH, param_value : 0.75, param_type : 9, param_count : 975, param_index : 65}
PARAM_VALUE {param_id : ARMING_RUDDER, param_value : 2.0, param_type : 2, param_count : 975, param_index : 66}
PARAM_VALUE {param_id : ARMING_MIS_ITEMS, param_value : 0.0, param_type : 6, param_count : 975, param_index : 67}
PARAM_VALUE {param_id : ARMING_CHECK, param_value : 1.0, param_type : 6, param_count : 975, param_index : 68}
PARAM_VALUE {param_id : ARMING_OPTIONS, param_value : 0.0, param_type : 6, param_count : 975, param_index : 69}
HEARTBEAT {type : 2, autopilot : 3, base_mode : 81, custom_mode : 0, system_status : 5, mavlink_version : 3}
PARAM_VALUE {param_id : DISARM_DELAY, param_value : 10.0, param_type : 2, param_count : 975, param_index : 70}
PARAM_VALUE {param_id : ANGLE_MAX, param_value : 3000.0, param_type : 4, param_count : 975, param_index : 71}
PARAM_VALUE {param_id : PHLD_BRAKE_RATE, param_value : 8.0, param_type : 4, param_count : 975, param_index : 72}
PARAM_VALUE {param_id : PHLD_BRAKE_ANGLE, param_value : 3000.0, param_type : 4, param_count : 975, param_index : 73}
PARAM_VALUE {param_id : LAND_REPOSITION, param_value : 1.0, param_type : 2, param_count : 975, param_index : 74}
PARAM_VALUE {param_id : FS_EKF_ACTION, param_value : 1.0, param_type : 2, param_count : 975, param_index : 75}
PARAM_VALUE {param_id : FS_EKF_THRESH, param_value : 0.800000011920929, param_type : 9, param_count : 975, param_index : 76}
PARAM_VALUE {param_id : FS_CRASH_CHECK, param_value : 1.0, param_type : 2, param_count : 975, param_index : 77}
ATTITUDE {time_boot_ms : 5710541, roll : -0.059945203363895416, pitch : 0.06252969056367874, yaw : -1.305475115776062, rollspeed : -0.3452658951282501, pitchspeed : 0.2659900486469269, yawspeed : 0.8409738540649414}
VFR_HUD {airspeed : 0.07300000637769699, groundspeed : 0.19185863435268402, heading : 285, throttle : 0, alt : 74.86000061035156, climb : -0.5294918417930603}
AHRS2 {roll : -0.0670703873038292, pitch : 0.06178053468465805, yaw : -1.3456945419311523, altitude : 77.72000122070312, lat : 583103807, lng : 266901440}
PARAM_VALUE {param_id : RC_SPEED, param_value : 490.0, param_type : 4, param_count : 975, param_index : 78}
PARAM_VALUE {param_id : ACRO_BAL_ROLL, param_value : 1.0, param_type : 9, param_count : 975, param_index : 79}
PARAM_VALUE {param_id : ACRO_BAL_PITCH, param_value : 1.0, param_type : 9, param_count : 975, param_index : 80}
PARAM_VALUE {param_id : ACRO_TRAINER, param_value : 2.0, param_type : 2, param_count : 975, param_index : 81}
PARAM_VALUE {param_id : CAM_MAX_ROLL, param_value : 0.0, param_type : 4, param_count : 975, param_index : 82}
PARAM_VALUE {param_id : CAM_AUTO_ONLY, param_value : 0.0, param_type : 2, param_count : 975, param_index : 83}
PARAM_VALUE {param_id : CAM1_TYPE, param_value : 0.0, param_type : 2, param_count : 975, param_index : 84}
PARAM_VALUE {param_id : CAM2_TYPE, param_value : 0.0, param_type : 2, param_count : 975, param_index : 85}
PARAM_VALUE {param_id : RELAY_PIN, param_value : -1.0, param_type : 2, param_count : 975, param_index : 86}
PARAM_VALUE {param_id : RELAY_PIN2, param_value : -1.0, param_type : 2, param_count : 975, param_index : 87}
PARAM_VALUE {param_id : RELAY_PIN3, param_value : -1.0, param_type : 2, param_count : 975, param_index : 88}
PARAM_VALUE {param_id : RELAY_PIN4, param_value : -1.0, param_type : 2, param_count : 975, param_index : 89}
PARAM_VALUE {param_id : RELAY_DEFAULT, param_value : 0.0, param_type : 2, param_count : 975, param_index : 90}
PARAM_VALUE {param_id : RELAY_PIN5, param_value : -1.0, param_type : 2, param_count : 975, param_index : 91}
PARAM_VALUE {param_id : RELAY_PIN6, param_value : -1.0, param_type : 2, param_count : 975, param_index : 92}
PARAM_VALUE {param_id : CHUTE_ENABLED, param_value : 0.0, param_type : 2, param_count : 975, param_index : 93}
PARAM_VALUE {param_id : LGR_ENABLE, param_value : 0.0, param_type : 2, param_count : 975, param_index : 94}
PARAM_VALUE {param_id : COMPASS_OFS_X, param_value : 43.704681396484375, param_type : 9, param_count : 975, param_index : 95}
PARAM_VALUE {param_id : COMPASS_OFS_Y, param_value : -39.571956634521484, param_type : 9, param_count : 975, param_index : 96}
PARAM_VALUE {param_id : COMPASS_OFS_Z, param_value : -57.24957275390625, param_type : 9, param_count : 975, param_index : 97}
PARAM_VALUE {param_id : COMPASS_DEC, param_value : 0.1737878918647766, param_type : 9, param_count : 975, param_index : 98}
PARAM_VALUE {param_id : COMPASS_LEARN, param_value : 0.0, param_type : 2, param_count : 975, param_index : 99}
PARAM_VALUE {param_id : COMPASS_USE, param_value : 1.0, param_type : 2, param_count : 975, param_index : 100}
PARAM_VALUE {param_id : COMPASS_AUTODEC, param_value : 1.0, param_type : 2, param_count : 975, param_index : 101}
PARAM_VALUE {param_id : COMPASS_MOTCT, param_value : 0.0, param_type : 2, param_count : 975, param_index : 102}
PARAM_VALUE {param_id : COMPASS_MOT_X, param_value : 0.0, param_type : 9, param_count : 975, param_index : 103}
PARAM_VALUE {param_id : COMPASS_MOT_Y, param_value : 0.0, param_type : 9, param_count : 975, param_index : 104}
PARAM_VALUE {param_id : COMPASS_MOT_Z, param_value : 0.0, param_type : 9, param_count : 975, param_index : 105}
PARAM_VALUE {param_id : COMPASS_ORIENT, param_value : 0.0, param_type : 2, param_count : 975, param_index : 106}
PARAM_VALUE {param_id : COMPASS_EXTERNAL, param_value : 0.0, param_type : 2, param_count : 975, param_index : 107}
PARAM_VALUE {param_id : COMPASS_OFS2_X, param_value : 14.13146686553955, param_type : 9, param_count : 975, param_index : 108}
PARAM_VALUE {param_id : COMPASS_OFS2_Y, param_value : 21.319866180419922, param_type : 9, param_count : 975, param_index : 109}
TIMESYNC {tc1 : 0, ts1 : 5711378663001}
HEARTBEAT {type : 2, autopilot : 3, base_mode : 81, custom_mode : 0, system_status : 5, mavlink_version : 3}
PARAM_VALUE {param_id : COMPASS_OFS2_Z, param_value : 53.23921585083008, param_type : 9, param_count : 975, param_index : 110}
PARAM_VALUE {param_id : COMPASS_MOT2_X, param_value : 0.0, param_type : 9, param_count : 975, param_index : 111}
PARAM_VALUE {param_id : COMPASS_MOT2_Y, param_value : 0.0, param_type : 9, param_count : 975, param_index : 112}
PARAM_VALUE {param_id : COMPASS_MOT2_Z, param_value : 0.0, param_type : 9, param_count : 975, param_index : 113}
PARAM_VALUE {param_id : COMPASS_OFS3_X, param_value : 0.0, param_type : 9, param_count : 975, param_index : 114}
PARAM_VALUE {param_id : COMPASS_OFS3_Y, param_value : 0.0, param_type : 9, param_count : 975, param_index : 115}
PARAM_VALUE {param_id : COMPASS_OFS3_Z, param_value : 0.0, param_type : 9, param_count : 975, param_index : 116}
PARAM_VALUE {param_id : COMPASS_MOT3_X, param_value : 0.0, param_type : 9, param_count : 975, param_index : 117}
ATTITUDE {time_boot_ms : 5711541, roll : -0.05429721251130104, pitch : 0.1227346807718277, yaw : -1.025927186012268, rollspeed : 0.05988611280918121, pitchspeed : -0.015521077439188957, yawspeed : 0.0643574520945549}
VFR_HUD {airspeed : 0.23100000619888306, groundspeed : 0.46929460763931274, heading : 301, throttle : 0, alt : 74.54999542236328, climb : -0.4583253562450409}
AHRS2 {roll : -0.04216448962688446, pitch : 0.12671411037445068, yaw : -1.042365312576294, altitude : 77.79000091552734, lat : 583103819, lng : 266901439}
PARAM_VALUE {param_id : COMPASS_MOT3_Y, param_value : 0.0, param_type : 9, param_count : 975, param_index : 118}
PARAM_VALUE {param_id : COMPASS_MOT3_Z, param_value : 0.0, param_type : 9, param_count : 975, param_index : 119}
PARAM_VALUE {param_id : COMPASS_DEV_ID, param_value : 658433.0, param_type : 6, param_count : 975, param_index : 120}
PARAM_VALUE {param_id : COMPASS_DEV_ID2, param_value : 658953.0, param_type : 6, param_count : 975, param_index : 121}
PARAM_VALUE {param_id : COMPASS_DEV_ID3, param_value : 0.0, param_type : 6, param_count : 975, param_index : 122}
PARAM_VALUE {param_id : COMPASS_USE2, param_value : 0.0, param_type : 2, param_count : 975, param_index : 123}
PARAM_VALUE {param_id : COMPASS_ORIENT2, param_value : 6.0, param_type : 2, param_count : 975, param_index : 124}
PARAM_VALUE {param_id : COMPASS_EXTERN2, param_value : 1.0, param_type : 2, param_count : 975, param_index : 125}
PARAM_VALUE {param_id : COMPASS_USE3, param_value : 0.0, param_type : 2, param_count : 975, param_index : 126}
PARAM_VALUE {param_id : COMPASS_ORIENT3, param_value : 0.0, param_type : 2, param_count : 975, param_index : 127}
PARAM_VALUE {param_id : COMPASS_EXTERN3, param_value : 0.0, param_type : 2, param_count : 975, param_index : 128}
PARAM_VALUE {param_id : COMPASS_DIA_X, param_value : 0.9934224486351013, param_type : 9, param_count : 975, param_index : 129}
PARAM_VALUE {param_id : COMPASS_DIA_Y, param_value : 1.0609796047210693, param_type : 9, param_count : 975, param_index : 130}
PARAM_VALUE {param_id : COMPASS_DIA_Z, param_value : 1.033418893814087, param_type : 9, param_count : 975, param_index : 131}
PARAM_VALUE {param_id : COMPASS_ODI_X, param_value : -0.0009662274387665093, param_type : 9, param_count : 975, param_index : 132}
PARAM_VALUE {param_id : COMPASS_ODI_Y, param_value : 0.03656234219670296, param_type : 9, param_count : 975, param_index : 133}
PARAM_VALUE {param_id : COMPASS_ODI_Z, param_value : -0.01483717281371355, param_type : 9, param_count : 975, param_index : 134}
PARAM_VALUE {param_id : COMPASS_DIA2_X, param_value : 0.9812753200531006, param_type : 9, param_count : 975, param_index : 135}
PARAM_VALUE {param_id : COMPASS_DIA2_Y, param_value : 0.9147124290466309, param_type : 9, param_count : 975, param_index : 136}
PARAM_VALUE {param_id : COMPASS_DIA2_Z, param_value : 1.0454902648925781, param_type : 9, param_count : 975, param_index : 137}
PARAM_VALUE {param_id : COMPASS_ODI2_X, param_value : 0.010651753284037113, param_type : 9, param_count : 975, param_index : 138}
PARAM_VALUE {param_id : COMPASS_ODI2_Y, param_value : -0.03775445371866226, param_type : 9, param_count : 975, param_index : 139}
PARAM_VALUE {param_id : COMPASS_ODI2_Z, param_value : 0.033723194152116776, param_type : 9, param_count : 975, param_index : 140}
PARAM_VALUE {param_id : COMPASS_DIA3_X, param_value : 1.0, param_type : 9, param_count : 975, param_index : 141}
GLOBAL_POSITION_INT {time_boot_ms : 5712146, lat : 583103823, lon : 266901429, alt : 74500, relative_alt : -8886, vx : -54, vy : -29, vz : 33, hdg : 30341}
SYS_STATUS {onboard_control_sensors_present : 1467022383, onboard_control_sensors_enabled : 1382030383, onboard_control_sensors_health : 1198562351, load : 193, voltage_battery : 1, current_battery : 55, battery_remaining : 73, drop_rate_comm : 0, errors_comm : 0, errors_count1 : 0, errors_count2 : 0, errors_count3 : 0, errors_count4 : 0}
POWER_STATUS {Vcc : 4898, Vservo : 0, flags : 20}
MEMINFO {brkval : 0, freemem : 65535, freemem32 : 552848}
NAV_CONTROLLER_OUTPUT {nav_roll : 0.00021039949206169695, nav_pitch : -0.0003365100419614464, nav_bearing : -56, target_bearing : 0, wp_dist : 0, alt_error : 8.88641357421875, aspd_error : 0.0, xtrack_error : 0.0}
MISSION_CURRENT {seq : 0, total : 0, mission_state : 0, mission_mode : 0}
SERVO_OUTPUT_RAW {time_usec : 1417179057, port : 0, servo1_raw : 1000, servo2_raw : 1000, servo3_raw : 1000, servo4_raw : 1000, servo5_raw : 0, servo6_raw : 0, servo7_raw : 0, servo8_raw : 0, servo9_raw : 0, servo10_raw : 0, servo11_raw : 0, servo12_raw : 0, servo13_raw : 0, servo14_raw : 0, servo15_raw : 0, servo16_raw : 0}
RC_CHANNELS {time_boot_ms : 5712146, chancount : 0, chan1_raw : 0, chan2_raw : 0, chan3_raw : 0, chan4_raw : 0, chan5_raw : 0, chan6_raw : 0, chan7_raw : 0, chan8_raw : 0, chan9_raw : 0, chan10_raw : 0, chan11_raw : 0, chan12_raw : 0, chan13_raw : 0, chan14_raw : 0, chan15_raw : 0, chan16_raw : 0, chan17_raw : 0, chan18_raw : 0, rssi : 255}
RAW_IMU {time_usec : 5712146385, xacc : 127, yacc : 48, zacc : -1004, xgyro : -12, ygyro : 33, zgyro : 8, xmag : -4, ymag : 0, zmag : 448, id : 0, temperature : 4528}
SCALED_IMU2 {time_boot_ms : 5712146, xacc : 139, yacc : 20, zacc : -997, xgyro : -7, ygyro : 28, zgyro : 7, xmag : 21, ymag : 92, zmag : 423, temperature : 4650}
SCALED_PRESSURE {time_boot_ms : 5712146, press_abs : 996.60107421875, press_diff : 0.0, temperature : 2402, temperature_press_diff : 0}
GPS_RAW_INT {time_usec : 5711964000, fix_type : 3, lat : 583103823, lon : 266901429, alt : 74500, eph : 91, epv : 113, vel : 18, cog : 1388, satellites_visible : 14, alt_ellipsoid : 93910, h_acc : 1962, v_acc : 2397, vel_acc : 663, hdg_acc : 0, yaw : 0}
SYSTEM_TIME {time_unix_usec : 1711368314082003, time_boot_ms : 5712148}
AHRS {omegaIx : 0.002258456777781248, omegaIy : -0.006481046788394451, omegaIz : -0.000515031861141324, accel_weight : 0.0, renorm_val : 0.0, error_rp : 0.0449431873857975, error_yaw : 0.6505475044250488}
TERRAIN_REPORT {lat : 583103823, lon : 266901429, spacing : 100, terrain_height : 65.31634521484375, current_height : -6.1093854904174805, pending : 56, loaded : 616}
TERRAIN_REQUEST {lat : 582587162, lon : 266192928, grid_spacing : 100, mask : 72057594037927935}
EKF_STATUS_REPORT {flags : 167, velocity_variance : 0.0, pos_horiz_variance : 0.06328783929347992, pos_vert_variance : 0.1044107973575592, compass_variance : 0.3941299617290497, terrain_alt_variance : 0.0, airspeed_variance : 0.0}
VIBRATION {time_usec : 5712148884, vibration_x : 0.050757210701704025, vibration_y : 0.10628481954336166, vibration_z : 0.0764070451259613, clipping_0 : 0, clipping_1 : 0, clipping_2 : 0}
BATTERY_STATUS {id : 0, battery_function : 0, type : 0, temperature : 32767, voltages : [1, 65535, 65535, 65535, 65535, 65535, 65535, 65535, 65535, 65535], current_battery : 55, current_consumed : 864, energy_consumed : 0, battery_remaining : 73, time_remaining : 0, charge_state : 1, voltages_ext : [0, 0, 0, 0], mode : 0, fault_bitmask : 0}
MCU_STATUS {id : 0, MCU_temperature : 2707, MCU_voltage : 3329, MCU_voltage_min : 3322, MCU_voltage_max : 3334}
PARAM_VALUE {param_id : COMPASS_DIA3_Y, param_value : 1.0, param_type : 9, param_count : 975, param_index : 142}
PARAM_VALUE {param_id : COMPASS_DIA3_Z, param_value : 1.0, param_type : 9, param_count : 975, param_index : 143}
PARAM_VALUE {param_id : COMPASS_ODI3_X, param_value : 0.0, param_type : 9, param_count : 975, param_index : 144}
PARAM_VALUE {param_id : COMPASS_ODI3_Y, param_value : 0.0, param_type : 9, param_count : 975, param_index : 145}
PARAM_VALUE {param_id : COMPASS_ODI3_Z, param_value : 0.0, param_type : 9, param_count : 975, param_index : 146}
PARAM_VALUE {param_id : COMPASS_CAL_FIT, param_value : 16.0, param_type : 9, param_count : 975, param_index : 147}
PARAM_VALUE {param_id : COMPASS_OFFS_MAX, param_value : 1800.0, param_type : 4, param_count : 975, param_index : 148}
PARAM_VALUE {param_id : COMPASS_PMOT_EN, param_value : 0.0, param_type : 2, param_count : 975, param_index : 149}
HEARTBEAT {type : 2, autopilot : 3, base_mode : 81, custom_mode : 0, system_status : 5, mavlink_version : 3}
PARAM_VALUE {param_id : COMPASS_TYPEMASK, param_value : 0.0, param_type : 6, param_count : 975, param_index : 150}
PARAM_VALUE {param_id : COMPASS_FLTR_RNG, param_value : 0.0, param_type : 2, param_count : 975, param_index : 151}
PARAM_VALUE {param_id : COMPASS_AUTO_ROT, param_value : 2.0, param_type : 2, param_count : 975, param_index : 152}
PARAM_VALUE {param_id : COMPASS_PRIO1_ID, param_value : 658433.0, param_type : 6, param_count : 975, param_index : 153}
PARAM_VALUE {param_id : COMPASS_PRIO2_ID, param_value : 658953.0, param_type : 6, param_count : 975, param_index : 154}
PARAM_VALUE {param_id : COMPASS_PRIO3_ID, param_value : 0.0, param_type : 6, param_count : 975, param_index : 155}
PARAM_VALUE {param_id : COMPASS_ENABLE, param_value : 1.0, param_type : 2, param_count : 975, param_index : 156}
PARAM_VALUE {param_id : COMPASS_SCALE, param_value : 0.0, param_type : 9, param_count : 975, param_index : 157}
ATTITUDE {time_boot_ms : 5712541, roll : -0.09503284841775894, pitch : 0.14517299830913544, yaw : -0.9815056324005127, rollspeed : -0.05878123268485069, pitchspeed : -0.09248504042625427, yawspeed : -0.025173500180244446}
VFR_HUD {airspeed : 0.3410000205039978, groundspeed : 0.7442956566810608, heading : 303, throttle : 0, alt : 74.54000091552734, climb : -0.2736559808254242}
AHRS2 {roll : -0.0707099437713623, pitch : 0.1470605432987213, yaw : -0.9685518741607666, altitude : 77.7699966430664, lat : 583103824, lng : 266901389}
PARAM_VALUE {param_id : COMPASS_SCALE2, param_value : 1.053193211555481, param_type : 9, param_count : 975, param_index : 158}
PARAM_VALUE {param_id : COMPASS_SCALE3, param_value : 0.0, param_type : 9, param_count : 975, param_index : 159}
PARAM_VALUE {param_id : COMPASS_OPTIONS, param_value : 0.0, param_type : 4, param_count : 975, param_index : 160}
PARAM_VALUE {param_id : COMPASS_DEV_ID4, param_value : 0.0, param_type : 6, param_count : 975, param_index : 161}
PARAM_VALUE {param_id : COMPASS_DEV_ID5, param_value : 0.0, param_type : 6, param_count : 975, param_index : 162}
PARAM_VALUE {param_id : COMPASS_DEV_ID6, param_value : 0.0, param_type : 6, param_count : 975, param_index : 163}
PARAM_VALUE {param_id : COMPASS_DEV_ID7, param_value : 0.0, param_type : 6, param_count : 975, param_index : 164}
PARAM_VALUE {param_id : COMPASS_DEV_ID8, param_value : 0.0, param_type : 6, param_count : 975, param_index : 165}
PARAM_VALUE {param_id : INS_GYROFFS_X, param_value : 0.00277539761736989, param_type : 9, param_count : 975, param_index : 166}
PARAM_VALUE {param_id : INS_GYROFFS_Y, param_value : -0.03316027671098709, param_type : 9, param_count : 975, param_index : 167}
PARAM_VALUE {param_id : INS_GYROFFS_Z, param_value : -0.007326418999582529, param_type : 9, param_count : 975, param_index : 168}
PARAM_VALUE {param_id : INS_GYR2OFFS_X, param_value : -0.005926220212131739, param_type : 9, param_count : 975, param_index : 169}
PARAM_VALUE {param_id : INS_GYR2OFFS_Y, param_value : 0.002919394988566637, param_type : 9, param_count : 975, param_index : 170}
PARAM_VALUE {param_id : INS_GYR2OFFS_Z, param_value : 0.0018840389093384147, param_type : 9, param_count : 975, param_index : 171}
PARAM_VALUE {param_id : INS_ACCSCAL_X, param_value : 1.0, param_type : 9, param_count : 975, param_index : 172}
PARAM_VALUE {param_id : INS_ACCSCAL_Y, param_value : 1.0, param_type : 9, param_count : 975, param_index : 173}
PARAM_VALUE {param_id : INS_ACCSCAL_Z, param_value : 1.0, param_type : 9, param_count : 975, param_index : 174}
PARAM_VALUE {param_id : INS_ACCOFFS_X, param_value : 0.2902737855911255, param_type : 9, param_count : 975, param_index : 175}
PARAM_VALUE {param_id : INS_ACCOFFS_Y, param_value : 0.06922909617424011, param_type : 9, param_count : 975, param_index : 176}
PARAM_VALUE {param_id : INS_ACCOFFS_Z, param_value : -0.0759286880493164, param_type : 9, param_count : 975, param_index : 177}
PARAM_VALUE {param_id : INS_ACC2SCAL_X, param_value : 1.0, param_type : 9, param_count : 975, param_index : 178}
PARAM_VALUE {param_id : INS_ACC2SCAL_Y, param_value : 1.0, param_type : 9, param_count : 975, param_index : 179}
PARAM_VALUE {param_id : INS_ACC2SCAL_Z, param_value : 1.0, param_type : 9, param_count : 975, param_index : 180}
PARAM_VALUE {param_id : INS_ACC2OFFS_X, param_value : -0.2211511880159378, param_type : 9, param_count : 975, param_index : 181}
PARAM_VALUE {param_id : INS_ACC2OFFS_Y, param_value : 0.28268271684646606, param_type : 9, param_count : 975, param_index : 182}
PARAM_VALUE {param_id : INS_ACC2OFFS_Z, param_value : -0.1259765625, param_type : 9, param_count : 975, param_index : 183}
PARAM_VALUE {param_id : INS_GYRO_FILTER, param_value : 42.0, param_type : 4, param_count : 975, param_index : 184}
PARAM_VALUE {param_id : INS_ACCEL_FILTER, param_value : 20.0, param_type : 4, param_count : 975, param_index : 185}
PARAM_VALUE {param_id : INS_USE, param_value : 1.0, param_type : 2, param_count : 975, param_index : 186}
PARAM_VALUE {param_id : INS_USE2, param_value : 1.0, param_type : 2, param_count : 975, param_index : 187}
PARAM_VALUE {param_id : INS_STILL_THRESH, param_value : 2.5, param_type : 9, param_count : 975, param_index : 188}
PARAM_VALUE {param_id : INS_GYR_CAL, param_value : 1.0, param_type : 2, param_count : 975, param_index : 189}
HEARTBEAT {type : 2, autopilot : 3, base_mode : 81, custom_mode : 0, system_status : 5, mavlink_version : 3}
PARAM_VALUE {param_id : INS_TRIM_OPTION, param_value : 1.0, param_type : 2, param_count : 975, param_index : 190}
PARAM_VALUE {param_id : INS_ACC_BODYFIX, param_value : 2.0, param_type : 2, param_count : 975, param_index : 191}
PARAM_VALUE {param_id : INS_POS1_X, param_value : 0.0, param_type : 9, param_count : 975, param_index : 192}
PARAM_VALUE {param_id : INS_POS1_Y, param_value : 0.0, param_type : 9, param_count : 975, param_index : 193}
PARAM_VALUE {param_id : INS_POS1_Z, param_value : 0.0, param_type : 9, param_count : 975, param_index : 194}
PARAM_VALUE {param_id : INS_POS2_X, param_value : 0.0, param_type : 9, param_count : 975, param_index : 195}
PARAM_VALUE {param_id : INS_POS2_Y, param_value : 0.0, param_type : 9, param_count : 975, param_index : 196}
PARAM_VALUE {param_id : INS_POS2_Z, param_value : 0.0, param_type : 9, param_count : 975, param_index : 197}
ATTITUDE {time_boot_ms : 5713541, roll : 0.027708685025572777, pitch : 0.0290389247238636, yaw : -1.8918968439102173, rollspeed : 0.37923091650009155, pitchspeed : 0.27472564578056335, yawspeed : -0.6929165720939636}
VFR_HUD {airspeed : 0.5600000023841858, groundspeed : 0.8462617993354797, heading : 251, throttle : 0, alt : 74.18999481201172, climb : -0.00046640587970614433}
AHRS2 {roll : 0.0497710146009922, pitch : 0.05464799329638481, yaw : -1.8753156661987305, altitude : 77.77999877929688, lat : 583103842, lng : 266901296}
PARAM_VALUE {param_id : INS_GYR_ID, param_value : 3408650.0, param_type : 6, param_count : 975, param_index : 198}
PARAM_VALUE {param_id : INS_GYR2_ID, param_value : 2687242.0, param_type : 6, param_count : 975, param_index : 199}
PARAM_VALUE {param_id : INS_ACC_ID, param_value : 3408650.0, param_type : 6, param_count : 975, param_index : 200}
PARAM_VALUE {param_id : INS_ACC2_ID, param_value : 2687498.0, param_type : 6, param_count : 975, param_index : 201}
PARAM_VALUE {param_id : INS_FAST_SAMPLE, param_value : 3.0, param_type : 2, param_count : 975, param_index : 202}
PARAM_VALUE {param_id : INS_LOG_BAT_CNT, param_value : 1024.0, param_type : 4, param_count : 975, param_index : 203}
PARAM_VALUE {param_id : INS_LOG_BAT_MASK, param_value : 0.0, param_type : 2, param_count : 975, param_index : 204}
PARAM_VALUE {param_id : INS_LOG_BAT_OPT, param_value : 0.0, param_type : 2, param_count : 975, param_index : 205}
PARAM_VALUE {param_id : INS_LOG_BAT_LGIN, param_value : 20.0, param_type : 2, param_count : 975, param_index : 206}
PARAM_VALUE {param_id : INS_LOG_BAT_LGCT, param_value : 32.0, param_type : 4, param_count : 975, param_index : 207}
PARAM_VALUE {param_id : INS_ENABLE_MASK, param_value : 127.0, param_type : 2, param_count : 975, param_index : 208}
PARAM_VALUE {param_id : INS_HNTCH_ENABLE, param_value : 0.0, param_type : 2, param_count : 975, param_index : 209}
PARAM_VALUE {param_id : INS_HNTC2_ENABLE, param_value : 0.0, param_type : 2, param_count : 975, param_index : 210}
PARAM_VALUE {param_id : INS_GYRO_RATE, param_value : 1.0, param_type : 2, param_count : 975, param_index : 211}
PARAM_VALUE {param_id : INS_TCAL1_ENABLE, param_value : 0.0, param_type : 2, param_count : 975, param_index : 212}
PARAM_VALUE {param_id : INS_TCAL2_ENABLE, param_value : 0.0, param_type : 2, param_count : 975, param_index : 213}
PARAM_VALUE {param_id : INS_ACC1_CALTEMP, param_value : 44.8067626953125, param_type : 9, param_count : 975, param_index : 214}
PARAM_VALUE {param_id : INS_GYR1_CALTEMP, param_value : 28.623188018798828, param_type : 9, param_count : 975, param_index : 215}
PARAM_VALUE {param_id : INS_ACC2_CALTEMP, param_value : 45.5, param_type : 9, param_count : 975, param_index : 216}
PARAM_VALUE {param_id : INS_GYR2_CALTEMP, param_value : 17.25, param_type : 9, param_count : 975, param_index : 217}
PARAM_VALUE {param_id : INS_TCAL_OPTIONS, param_value : 0.0, param_type : 6, param_count : 975, param_index : 218}
PARAM_VALUE {param_id : WPNAV_SPEED, param_value : 100.0, param_type : 9, param_count : 975, param_index : 219}
PARAM_VALUE {param_id : WPNAV_RADIUS, param_value : 200.0, param_type : 9, param_count : 975, param_index : 220}
PARAM_VALUE {param_id : WPNAV_SPEED_UP, param_value : 250.0, param_type : 9, param_count : 975, param_index : 221}
GLOBAL_POSITION_INT {time_boot_ms : 5714146, lat : 583103840, lon : 266901277, alt : 73990, relative_alt : -8310, vx : -60, vy : 2, vz : -5, hdg : 23005}
SYS_STATUS {onboard_control_sensors_present : 1467022383, onboard_control_sensors_enabled : 1382030383, onboard_control_sensors_health : 1198562351, load : 191, voltage_battery : 1, current_battery : 54, battery_remaining : 73, drop_rate_comm : 0, errors_comm : 0, errors_count1 : 0, errors_count2 : 0, errors_count3 : 0, errors_count4 : 0}
POWER_STATUS {Vcc : 4771, Vservo : 0, flags : 20}
MEMINFO {brkval : 0, freemem : 65535, freemem32 : 552848}
NAV_CONTROLLER_OUTPUT {nav_roll : 0.00021040000137872994, nav_pitch : -0.0003365097800269723, nav_bearing : -129, target_bearing : 0, wp_dist : 0, alt_error : 8.310367584228516, aspd_error : 0.0, xtrack_error : 0.0}
MISSION_CURRENT {seq : 0, total : 0, mission_state : 0, mission_mode : 0}
SERVO_OUTPUT_RAW {time_usec : 1419179061, port : 0, servo1_raw : 1000, servo2_raw : 1000, servo3_raw : 1000, servo4_raw : 1000, servo5_raw : 0, servo6_raw : 0, servo7_raw : 0, servo8_raw : 0, servo9_raw : 0, servo10_raw : 0, servo11_raw : 0, servo12_raw : 0, servo13_raw : 0, servo14_raw : 0, servo15_raw : 0, servo16_raw : 0}
RC_CHANNELS {time_boot_ms : 5714146, chancount : 0, chan1_raw : 0, chan2_raw : 0, chan3_raw : 0, chan4_raw : 0, chan5_raw : 0, chan6_raw : 0, chan7_raw : 0, chan8_raw : 0, chan9_raw : 0, chan10_raw : 0, chan11_raw : 0, chan12_raw : 0, chan13_raw : 0, chan14_raw : 0, chan15_raw : 0, chan16_raw : 0, chan17_raw : 0, chan18_raw : 0, rssi : 255}
RAW_IMU {time_usec : 5714146389, xacc : 154, yacc : 180, zacc : -827, xgyro : -337, ygyro : 18, zgyro : -720, xmag : -185, ymag : 23, zmag : 511, id : 0, temperature : 4432}
SCALED_IMU2 {time_boot_ms : 5714146, xacc : 170, yacc : 177, zacc : -820, xgyro : -343, ygyro : 15, zgyro : -719, xmag : -138, ymag : 110, zmag : 428, temperature : 4550}
SCALED_PRESSURE {time_boot_ms : 5714146, press_abs : 996.5975341796875, press_diff : 0.0, temperature : 2394, temperature_press_diff : 0}
GPS_RAW_INT {time_usec : 5713964000, fix_type : 3, lat : 583103840, lon : 266901277, alt : 73990, eph : 91, epv : 113, vel : 31, cog : 27362, satellites_visible : 14, alt_ellipsoid : 93401, h_acc : 2068, v_acc : 2448, vel_acc : 332, hdg_acc : 0, yaw : 0}
SYSTEM_TIME {time_unix_usec : 1711368316079779, time_boot_ms : 5714146}
AHRS {omegaIx : 0.0022690175101161003, omegaIy : -0.0062912278808653355, omegaIz : -7.830612048564944e-06, accel_weight : 0.0, renorm_val : 0.0, error_rp : 0.09006260335445404, error_yaw : 0.30498963594436646}
TERRAIN_REPORT {lat : 583103840, lon : 266901277, spacing : 100, terrain_height : 65.31942749023438, current_height : -6.622467994689941, pending : 56, loaded : 616}
TERRAIN_REQUEST {lat : 582587162, lon : 266192928, grid_spacing : 100, mask : 72057594037927935}
EKF_STATUS_REPORT {flags : 167, velocity_variance : 0.0, pos_horiz_variance : 0.18508827686309814, pos_vert_variance : 0.06306236237287521, compass_variance : 0.24639593064785004, terrain_alt_variance : 0.0, airspeed_variance : 0.0}
VIBRATION {time_usec : 5714148831, vibration_x : 0.17757441103458405, vibration_y : 0.3807392120361328, vibration_z : 0.29502779245376587, clipping_0 : 0, clipping_1 : 0, clipping_2 : 0}
BATTERY_STATUS {id : 0, battery_function : 0, type : 0, temperature : 32767, voltages : [1, 65535, 65535, 65535, 65535, 65535, 65535, 65535, 65535, 65535], current_battery : 54, current_consumed : 864, energy_consumed : 0, battery_remaining : 73, time_remaining : 0, charge_state : 1, voltages_ext : [0, 0, 0, 0], mode : 0, fault_bitmask : 0}
MCU_STATUS {id : 0, MCU_temperature : 2703, MCU_voltage : 3328, MCU_voltage_min : 3322, MCU_voltage_max : 3335}
PARAM_VALUE {param_id : WPNAV_SPEED_DN, param_value : 150.0, param_type : 9, param_count : 975, param_index : 222}
PARAM_VALUE {param_id : WPNAV_ACCEL, param_value : 250.0, param_type : 9, param_count : 975, param_index : 223}
PARAM_VALUE {param_id : WPNAV_ACCEL_Z, param_value : 100.0, param_type : 9, param_count : 975, param_index : 224}
PARAM_VALUE {param_id : WPNAV_RFND_USE, param_value : 1.0, param_type : 2, param_count : 975, param_index : 225}
PARAM_VALUE {param_id : WPNAV_JERK, param_value : 1.0, param_type : 9, param_count : 975, param_index : 226}
PARAM_VALUE {param_id : WPNAV_TER_MARGIN, param_value : 10.0, param_type : 9, param_count : 975, param_index : 227}
PARAM_VALUE {param_id : WPNAV_ACCEL_C, param_value : 0.0, param_type : 9, param_count : 975, param_index : 228}
PARAM_VALUE {param_id : LOIT_ANG_MAX, param_value : 0.0, param_type : 9, param_count : 975, param_index : 229}
HEARTBEAT {type : 2, autopilot : 3, base_mode : 81, custom_mode : 0, system_status : 5, mavlink_version : 3}
PARAM_VALUE {param_id : LOIT_SPEED, param_value : 500.0, param_type : 9, param_count : 975, param_index : 230}
PARAM_VALUE {param_id : LOIT_ACC_MAX, param_value : 500.0, param_type : 9, param_count : 975, param_index : 231}
PARAM_VALUE {param_id : LOIT_BRK_ACCEL, param_value : 250.0, param_type : 9, param_count : 975, param_index : 232}
PARAM_VALUE {param_id : LOIT_BRK_JERK, param_value : 500.0, param_type : 9, param_count : 975, param_index : 233}
PARAM_VALUE {param_id : LOIT_BRK_DELAY, param_value : 1.0, param_type : 9, param_count : 975, param_index : 234}
PARAM_VALUE {param_id : CIRCLE_RADIUS, param_value : 1000.0, param_type : 9, param_count : 975, param_index : 235}
PARAM_VALUE {param_id : CIRCLE_RATE, param_value : 20.0, param_type : 9, param_count : 975, param_index : 236}
PARAM_VALUE {param_id : CIRCLE_OPTIONS, param_value : 1.0, param_type : 4, param_count : 975, param_index : 237}
ATTITUDE {time_boot_ms : 5714541, roll : 0.02749008871614933, pitch : 0.08284546434879303, yaw : -2.698674201965332, rollspeed : -0.13791273534297943, pitchspeed : -1.0771533250808716, yawspeed : -0.24676811695098877}
VFR_HUD {airspeed : 0.2510000169277191, groundspeed : 0.47981688380241394, heading : 205, throttle : 0, alt : 73.97999572753906, climb : -0.289277046918869}
AHRS2 {roll : 0.017415951937437057, pitch : 0.10586945712566376, yaw : -2.698965549468994, altitude : 77.62999725341797, lat : 583103842, lng : 266901264}
PARAM_VALUE {param_id : ATC_SLEW_YAW, param_value : 6000.0, param_type : 9, param_count : 975, param_index : 238}
PARAM_VALUE {param_id : ATC_ACCEL_Y_MAX, param_value : 27000.0, param_type : 9, param_count : 975, param_index : 239}
PARAM_VALUE {param_id : ATC_RATE_FF_ENAB, param_value : 1.0, param_type : 2, param_count : 975, param_index : 240}
PARAM_VALUE {param_id : ATC_ACCEL_R_MAX, param_value : 116700.0, param_type : 9, param_count : 975, param_index : 241}
PARAM_VALUE {param_id : ATC_ACCEL_P_MAX, param_value : 116700.0, param_type : 9, param_count : 975, param_index : 242}
PARAM_VALUE {param_id : ATC_ANGLE_BOOST, param_value : 1.0, param_type : 2, param_count : 975, param_index : 243}
PARAM_VALUE {param_id : ATC_ANG_RLL_P, param_value : 3.5, param_type : 9, param_count : 975, param_index : 244}
PARAM_VALUE {param_id : ATC_ANG_PIT_P, param_value : 3.5, param_type : 9, param_count : 975, param_index : 245}
PARAM_VALUE {param_id : ATC_ANG_YAW_P, param_value : 4.5, param_type : 9, param_count : 975, param_index : 246}
PARAM_VALUE {param_id : ATC_ANG_LIM_TC, param_value : 1.0, param_type : 9, param_count : 975, param_index : 247}
PARAM_VALUE {param_id : ATC_RATE_R_MAX, param_value : 0.0, param_type : 9, param_count : 975, param_index : 248}
PARAM_VALUE {param_id : ATC_RATE_P_MAX, param_value : 0.0, param_type : 9, param_count : 975, param_index : 249}
PARAM_VALUE {param_id : ATC_RATE_Y_MAX, param_value : 0.0, param_type : 9, param_count : 975, param_index : 250}
PARAM_VALUE {param_id : ATC_INPUT_TC, param_value : 0.15000000596046448, param_type : 9, param_count : 975, param_index : 251}
PARAM_VALUE {param_id : ATC_RAT_RLL_P, param_value : 0.13500000536441803, param_type : 9, param_count : 975, param_index : 252}
PARAM_VALUE {param_id : ATC_RAT_RLL_I, param_value : 0.13500000536441803, param_type : 9, param_count : 975, param_index : 253}
PARAM_VALUE {param_id : ATC_RAT_RLL_D, param_value : 0.003599999938160181, param_type : 9, param_count : 975, param_index : 254}
PARAM_VALUE {param_id : ATC_RAT_RLL_FF, param_value : 0.0, param_type : 9, param_count : 975, param_index : 255}
PARAM_VALUE {param_id : ATC_RAT_RLL_IMAX, param_value : 0.5, param_type : 9, param_count : 975, param_index : 256}
PARAM_VALUE {param_id : ATC_RAT_RLL_FLTT, param_value : 21.0, param_type : 9, param_count : 975, param_index : 257}
PARAM_VALUE {param_id : ATC_RAT_RLL_FLTE, param_value : 0.0, param_type : 9, param_count : 975, param_index : 258}
PARAM_VALUE {param_id : ATC_RAT_RLL_FLTD, param_value : 21.0, param_type : 9, param_count : 975, param_index : 259}
PARAM_VALUE {param_id : ATC_RAT_RLL_SMAX, param_value : 0.0, param_type : 9, param_count : 975, param_index : 260}
PARAM_VALUE {param_id : ATC_RAT_PIT_P, param_value : 0.13500000536441803, param_type : 9, param_count : 975, param_index : 261}
PARAM_VALUE {param_id : ATC_RAT_PIT_I, param_value : 0.13500000536441803, param_type : 9, param_count : 975, param_index : 262}
PARAM_VALUE {param_id : ATC_RAT_PIT_D, param_value : 0.003599999938160181, param_type : 9, param_count : 975, param_index : 263}
PARAM_VALUE {param_id : ATC_RAT_PIT_FF, param_value : 0.0, param_type : 9, param_count : 975, param_index : 264}
PARAM_VALUE {param_id : ATC_RAT_PIT_IMAX, param_value : 0.5, param_type : 9, param_count : 975, param_index : 265}
PARAM_VALUE {param_id : ATC_RAT_PIT_FLTT, param_value : 21.0, param_type : 9, param_count : 975, param_index : 266}
PARAM_VALUE {param_id : ATC_RAT_PIT_FLTE, param_value : 0.0, param_type : 9, param_count : 975, param_index : 267}
PARAM_VALUE {param_id : ATC_RAT_PIT_FLTD, param_value : 21.0, param_type : 9, param_count : 975, param_index : 268}
PARAM_VALUE {param_id : ATC_RAT_PIT_SMAX, param_value : 0.0, param_type : 9, param_count : 975, param_index : 269}
HEARTBEAT {type : 2, autopilot : 3, base_mode : 81, custom_mode : 0, system_status : 5, mavlink_version : 3}
PARAM_VALUE {param_id : ATC_RAT_YAW_P, param_value : 0.18000000715255737, param_type : 9, param_count : 975, param_index : 270}
PARAM_VALUE {param_id : ATC_RAT_YAW_I, param_value : 0.017999999225139618, param_type : 9, param_count : 975, param_index : 271}
PARAM_VALUE {param_id : ATC_RAT_YAW_D, param_value : 0.0, param_type : 9, param_count : 975, param_index : 272}
PARAM_VALUE {param_id : ATC_RAT_YAW_FF, param_value : 0.0, param_type : 9, param_count : 975, param_index : 273}
PARAM_VALUE {param_id : ATC_RAT_YAW_IMAX, param_value : 0.5, param_type : 9, param_count : 975, param_index : 274}
PARAM_VALUE {param_id : ATC_RAT_YAW_FLTT, param_value : 21.0, param_type : 9, param_count : 975, param_index : 275}
PARAM_VALUE {param_id : ATC_RAT_YAW_FLTE, param_value : 2.0, param_type : 9, param_count : 975, param_index : 276}
PARAM_VALUE {param_id : ATC_RAT_YAW_FLTD, param_value : 0.0, param_type : 9, param_count : 975, param_index : 277}
ATTITUDE {time_boot_ms : 5715541, roll : -0.09438716620206833, pitch : 0.03709273040294647, yaw : -2.707122325897217, rollspeed : 0.21611358225345612, pitchspeed : -0.02239936962723732, yawspeed : -0.8690630197525024}
VFR_HUD {airspeed : 0.0010000000474974513, groundspeed : 0.20076610147953033, heading : 204, throttle : 0, alt : 74.33000183105469, climb : 0.10235272347927094}
AHRS2 {roll : -0.09930229187011719, pitch : 0.04715042933821678, yaw : -2.7124123573303223, altitude : 77.56999969482422, lat : 583103838, lng : 266901167}
PARAM_VALUE {param_id : ATC_RAT_YAW_SMAX, param_value : 0.0, param_type : 9, param_count : 975, param_index : 278}
PARAM_VALUE {param_id : ATC_THR_MIX_MIN, param_value : 0.10000000149011612, param_type : 9, param_count : 975, param_index : 279}
PARAM_VALUE {param_id : ATC_THR_MIX_MAX, param_value : 0.5, param_type : 9, param_count : 975, param_index : 280}
PARAM_VALUE {param_id : ATC_THR_MIX_MAN, param_value : 0.10000000149011612, param_type : 9, param_count : 975, param_index : 281}
PARAM_VALUE {param_id : ATC_THR_G_BOOST, param_value : 0.0, param_type : 9, param_count : 975, param_index : 282}
PARAM_VALUE {param_id : PSC_POSZ_P, param_value : 1.0, param_type : 9, param_count : 975, param_index : 283}
PARAM_VALUE {param_id : PSC_VELZ_P, param_value : 5.0, param_type : 9, param_count : 975, param_index : 284}
PARAM_VALUE {param_id : PSC_VELZ_I, param_value : 0.0, param_type : 9, param_count : 975, param_index : 285}
PARAM_VALUE {param_id : PSC_VELZ_IMAX, param_value : 1000.0, param_type : 9, param_count : 975, param_index : 286}
PARAM_VALUE {param_id : PSC_VELZ_FLTE, param_value : 5.0, param_type : 9, param_count : 975, param_index : 287}
PARAM_VALUE {param_id : PSC_VELZ_D, param_value : 0.0, param_type : 9, param_count : 975, param_index : 288}
PARAM_VALUE {param_id : PSC_VELZ_FLTD, param_value : 5.0, param_type : 9, param_count : 975, param_index : 289}
PARAM_VALUE {param_id : PSC_VELZ_FF, param_value : 0.0, param_type : 9, param_count : 975, param_index : 290}
PARAM_VALUE {param_id : PSC_ACCZ_P, param_value : 0.5, param_type : 9, param_count : 975, param_index : 291}
PARAM_VALUE {param_id : PSC_ACCZ_I, param_value : 1.0, param_type : 9, param_count : 975, param_index : 292}
PARAM_VALUE {param_id : PSC_ACCZ_D, param_value : 0.0, param_type : 9, param_count : 975, param_index : 293}
PARAM_VALUE {param_id : PSC_ACCZ_FF, param_value : 0.0, param_type : 9, param_count : 975, param_index : 294}
PARAM_VALUE {param_id : PSC_ACCZ_IMAX, param_value : 800.0, param_type : 9, param_count : 975, param_index : 295}
PARAM_VALUE {param_id : PSC_ACCZ_FLTT, param_value : 0.0, param_type : 9, param_count : 975, param_index : 296}
PARAM_VALUE {param_id : PSC_ACCZ_FLTE, param_value : 20.0, param_type : 9, param_count : 975, param_index : 297}
PARAM_VALUE {param_id : PSC_ACCZ_FLTD, param_value : 0.0, param_type : 9, param_count : 975, param_index : 298}
PARAM_VALUE {param_id : PSC_ACCZ_SMAX, param_value : 0.0, param_type : 9, param_count : 975, param_index : 299}
PARAM_VALUE {param_id : PSC_POSXY_P, param_value : 1.0, param_type : 9, param_count : 975, param_index : 300}
PARAM_VALUE {param_id : PSC_VELXY_P, param_value : 2.0, param_type : 9, param_count : 975, param_index : 301}
GLOBAL_POSITION_INT {time_boot_ms : 5716146, lat : 583103827, lon : 266901128, alt : 74480, relative_alt : -8297, vx : 50, vy : 0, vz : 108, hdg : 17321}
SYS_STATUS {onboard_control_sensors_present : 1467022383, onboard_control_sensors_enabled : 1382030383, onboard_control_sensors_health : 1198562351, load : 187, voltage_battery : 1, current_battery : 54, battery_remaining : 73, drop_rate_comm : 0, errors_comm : 0, errors_count1 : 0, errors_count2 : 0, errors_count3 : 0, errors_count4 : 0}
POWER_STATUS {Vcc : 4752, Vservo : 0, flags : 20}
MEMINFO {brkval : 0, freemem : 65535, freemem32 : 552848}
NAV_CONTROLLER_OUTPUT {nav_roll : 0.00021039995772298425, nav_pitch : -0.0003365088487043977, nav_bearing : 173, target_bearing : 0, wp_dist : 0, alt_error : 8.297502517700195, aspd_error : 0.0, xtrack_error : 0.0}
MISSION_CURRENT {seq : 0, total : 0, mission_state : 0, mission_mode : 0}
SERVO_OUTPUT_RAW {time_usec : 1421179039, port : 0, servo1_raw : 1000, servo2_raw : 1000, servo3_raw : 1000, servo4_raw : 1000, servo5_raw : 0, servo6_raw : 0, servo7_raw : 0, servo8_raw : 0, servo9_raw : 0, servo10_raw : 0, servo11_raw : 0, servo12_raw : 0, servo13_raw : 0, servo14_raw : 0, servo15_raw : 0, servo16_raw : 0}
RC_CHANNELS {time_boot_ms : 5716146, chancount : 0, chan1_raw : 0, chan2_raw : 0, chan3_raw : 0, chan4_raw : 0, chan5_raw : 0, chan6_raw : 0, chan7_raw : 0, chan8_raw : 0, chan9_raw : 0, chan10_raw : 0, chan11_raw : 0, chan12_raw : 0, chan13_raw : 0, chan14_raw : 0, chan15_raw : 0, chan16_raw : 0, chan17_raw : 0, chan18_raw : 0, rssi : 255}
RAW_IMU {time_usec : 5716146367, xacc : -150, yacc : 48, zacc : -1023, xgyro : 979, ygyro : -120, zgyro : -494, xmag : -125, ymag : -90, zmag : 542, id : 0, temperature : 4384}
SCALED_IMU2 {time_boot_ms : 5716146, xacc : -119, yacc : 21, zacc : -1031, xgyro : 980, ygyro : -127, zgyro : -507, xmag : -91, ymag : 6, zmag : 462, temperature : 4500}
SCALED_PRESSURE {time_boot_ms : 5716146, press_abs : 996.6544189453125, press_diff : 0.0, temperature : 2386, temperature_press_diff : 0}
GPS_RAW_INT {time_usec : 5715964000, fix_type : 3, lat : 583103827, lon : 266901128, alt : 74480, eph : 81, epv : 111, vel : 31, cog : 26609, satellites_visible : 15, alt_ellipsoid : 93891, h_acc : 1998, v_acc : 2355, vel_acc : 494, hdg_acc : 0, yaw : 0}
SYSTEM_TIME {time_unix_usec : 1711368318079755, time_boot_ms : 5716146}
AHRS {omegaIx : 0.002729296451434493, omegaIy : -0.006004100199788809, omegaIz : -0.001968109980225563, accel_weight : 0.0, renorm_val : 0.0, error_rp : 0.1092626079916954, error_yaw : 0.1660713404417038}
TERRAIN_REPORT {lat : 583103827, lon : 266901128, spacing : 100, terrain_height : 65.32463836669922, current_height : -6.137678623199463, pending : 56, loaded : 616}
TERRAIN_REQUEST {lat : 582587162, lon : 266192928, grid_spacing : 100, mask : 72057594037927935}
EKF_STATUS_REPORT {flags : 167, velocity_variance : 0.0, pos_horiz_variance : 0.0558541864156723, pos_vert_variance : 0.0024539176374673843, compass_variance : 0.09062383323907852, terrain_alt_variance : 0.0, airspeed_variance : 0.0}
VIBRATION {time_usec : 5716148757, vibration_x : 0.2033848911523819, vibration_y : 0.5083636045455933, vibration_z : 0.6159854531288147, clipping_0 : 0, clipping_1 : 0, clipping_2 : 0}
BATTERY_STATUS {id : 0, battery_function : 0, type : 0, temperature : 32767, voltages : [1, 65535, 65535, 65535, 65535, 65535, 65535, 65535, 65535, 65535], current_battery : 54, current_consumed : 865, energy_consumed : 0, battery_remaining : 73, time_remaining : 0, charge_state : 1, voltages_ext : [0, 0, 0, 0], mode : 0, fault_bitmask : 0}
MCU_STATUS {id : 0, MCU_temperature : 2695, MCU_voltage : 3329, MCU_voltage_min : 3322, MCU_voltage_max : 3334}
PARAM_VALUE {param_id : PSC_VELXY_I, param_value : 1.0, param_type : 9, param_count : 975, param_index : 302}
PARAM_VALUE {param_id : PSC_VELXY_IMAX, param_value : 1000.0, param_type : 9, param_count : 975, param_index : 303}
PARAM_VALUE {param_id : PSC_VELXY_FLTE, param_value : 5.0, param_type : 9, param_count : 975, param_index : 304}
PARAM_VALUE {param_id : PSC_VELXY_D, param_value : 0.5, param_type : 9, param_count : 975, param_index : 305}
PARAM_VALUE {param_id : PSC_VELXY_FLTD, param_value : 5.0, param_type : 9, param_count : 975, param_index : 306}
PARAM_VALUE {param_id : PSC_VELXY_FF, param_value : 0.0, param_type : 9, param_count : 975, param_index : 307}
PARAM_VALUE {param_id : PSC_ANGLE_MAX, param_value : 0.0, param_type : 9, param_count : 975, param_index : 308}
PARAM_VALUE {param_id : PSC_JERK_XY, param_value : 5.0, param_type : 9, param_count : 975, param_index : 309}
HEARTBEAT {type : 2, autopilot : 3, base_mode : 81, custom_mode : 0, system_status : 5, mavlink_version : 3}
PARAM_VALUE {param_id : PSC_JERK_Z, param_value : 5.0, param_type : 9, param_count : 975, param_index : 310}
PARAM_VALUE {param_id : SR0_RAW_SENS, param_value : 0.0, param_type : 4, param_count : 975, param_index : 311}
PARAM_VALUE {param_id : SR0_EXT_STAT, param_value : 0.0, param_type : 4, param_count : 975, param_index : 312}
PARAM_VALUE {param_id : SR0_RC_CHAN, param_value : 0.0, param_type : 4, param_count : 975, param_index : 313}
PARAM_VALUE {param_id : SR0_RAW_CTRL, param_value : 0.0, param_type : 4, param_count : 975, param_index : 314}
PARAM_VALUE {param_id : SR0_POSITION, param_value : 0.0, param_type : 4, param_count : 975, param_index : 315}
PARAM_VALUE {param_id : SR0_EXTRA1, param_value : 0.0, param_type : 4, param_count : 975, param_index : 316}
PARAM_VALUE {param_id : SR0_EXTRA2, param_value : 0.0, param_type : 4, param_count : 975, param_index : 317}
ATTITUDE {time_boot_ms : 5716541, roll : -0.03352745622396469, pitch : -0.09810448437929153, yaw : 2.867497682571411, rollspeed : -0.15590620040893555, pitchspeed : 0.5173500776290894, yawspeed : -0.13557685911655426}
VFR_HUD {airspeed : 0.4180000126361847, groundspeed : 0.6575964689254761, heading : 164, throttle : 0, alt : 74.54000091552734, climb : -0.3099212646484375}
AHRS2 {roll : -0.036336734890937805, pitch : -0.10948753356933594, yaw : 2.862276792526245, altitude : 76.65999603271484, lat : 583103824, lng : 266901089}
PARAM_VALUE {param_id : SR0_EXTRA3, param_value : 0.0, param_type : 4, param_count : 975, param_index : 318}
PARAM_VALUE {param_id : SR0_PARAMS, param_value : 0.0, param_type : 4, param_count : 975, param_index : 319}
PARAM_VALUE {param_id : SR0_ADSB, param_value : 0.0, param_type : 4, param_count : 975, param_index : 320}
PARAM_VALUE {param_id : SR1_RAW_SENS, param_value : 2.0, param_type : 4, param_count : 975, param_index : 321}
PARAM_VALUE {param_id : SR1_EXT_STAT, param_value : 2.0, param_type : 4, param_count : 975, param_index : 322}
PARAM_VALUE {param_id : SR1_RC_CHAN, param_value : 2.0, param_type : 4, param_count : 975, param_index : 323}
PARAM_VALUE {param_id : SR1_RAW_CTRL, param_value : 0.0, param_type : 4, param_count : 975, param_index : 324}
PARAM_VALUE {param_id : SR1_POSITION, param_value : 2.0, param_type : 4, param_count : 975, param_index : 325}
PARAM_VALUE {param_id : SR1_EXTRA1, param_value : 4.0, param_type : 4, param_count : 975, param_index : 326}
PARAM_VALUE {param_id : SR1_EXTRA2, param_value : 4.0, param_type : 4, param_count : 975, param_index : 327}
PARAM_VALUE {param_id : SR1_EXTRA3, param_value : 2.0, param_type : 4, param_count : 975, param_index : 328}
PARAM_VALUE {param_id : SR1_PARAMS, param_value : 0.0, param_type : 4, param_count : 975, param_index : 329}
PARAM_VALUE {param_id : SR1_ADSB, param_value : 0.0, param_type : 4, param_count : 975, param_index : 330}
PARAM_VALUE {param_id : SR2_RAW_SENS, param_value : 0.0, param_type : 4, param_count : 975, param_index : 331}
PARAM_VALUE {param_id : SR2_EXT_STAT, param_value : 0.0, param_type : 4, param_count : 975, param_index : 332}
PARAM_VALUE {param_id : SR2_RC_CHAN, param_value : 0.0, param_type : 4, param_count : 975, param_index : 333}
PARAM_VALUE {param_id : SR2_RAW_CTRL, param_value : 0.0, param_type : 4, param_count : 975, param_index : 334}
PARAM_VALUE {param_id : SR2_POSITION, param_value : 0.0, param_type : 4, param_count : 975, param_index : 335}
